$GLGSV,3,2,10,79,14,134,,80,66,115,26,81,09,033,,82,56,032,19*61
$GLGSV,3,3,10,83,76,208,,84,11,211,*6A
$GNGLL,4007.29294,N,10458.35545,W,074413.00,A,A*6D
$GNRMC,074414.00,A,4007.29303,N,10458.35525,W,1.317,,080924,,,A*79
$GNVTG,,T,,M,1.317,N,2.439,K,A*35
$GNGGA,074414.00,4007.29303,N,10458.35525,W,1,05,3.04,1484.8,M,-21.5,M,,*4E
$GNGSA,A,3,13,17,19,22,,,,,,,,,4.61,3.04,3.47*14
$GNGSA,A,3,80,,,,,,,,,,,,4.61,3.04,3.47*10
$GPGSV,3,1,12,02,04,037,06,03,12,071,,06,52,170,20,11,14,196,*74
$GPGSV,3,2,12,12,08,298,,13,06,221,18,14,41,104,15,17,61,038,22*74
$GPGSV,3,3,12,19,77,317,12,22,63,083,17,24,37,298,21,30,06,162,*7E
$GLGSV,3,1,10,65,00,008,,72,00,317,,73,50,328,25,74,08,321,08*61
$GLGSV,3,2,10,79,14,134,,80,66,115,26,81,09,033,,82,56,032,19*61
$GLGSV,3,3,10,83,76,208,,84,11,211,*6A
$GNGLL,4007.29303,N,10458.35525,W,074414.00,A,A*63
$GNRMC,074415.00,A,4007.29316,N,10458.35424,W,1.545,,080924,,,A*7D
$GNVTG,,T,,M,1.545,N,2.861,K,A*35
$GNGGA,074415.00,4007.29316,N,10458.35424,W,1,05,3.04,1484.8,M,-21.5,M,,*4B
$GNGSA,A,3,13,17,19,22,,,,,,,,,4.61,3.04,3.47*14
$GNGSA,A,3,80,,,,,,,,,,,,4.61,3.04,3.47*10
$GPGSV,3,1,12,02,04,037,08,03,12,071,,06,52,170,20,11,14,196,*7A
$GPGSV,3,2,12,12,08,298,,13,06,221,18,14,41,104,12,17,61,038,22*73
$GPGSV,3,3,12,19,77,317,12,22,63,083,16,24,37,298,20,30,06,162,*7E
$GLGSV,3,1,10,65,00,008,,72,00,317,,73,50,328,25,74,08,321,08*61
$GLGSV,3,2,10,79,14,134,,80,66,115,26,81,09,033,,82,56,032,20*6B
$GLGSV,3,3,10,83,76,208,,84,11,211,*6A
$GNGLL,4007.29316,N,10458.35424,W,074415.00,A,A*66
$GNRMC,074416.00,A,4007.29283,N,10458.35418,W,1.297,,080924,,,A*74
$GNVTG,,T,,M,1.297,N,2.403,K,A*35
$GNGGA,074416.00,4007.29283,N,10458.35418,W,1,05,3.03,1484.9,M,-21.5,M,,*4C
$GNGSA,A,3,13,17,19,22,,,,,,,,,4.61,3.03,3.47*13
$GNGSA,A,3,80,,,,,,,,,,,,4.61,3.03,3.47*17
$GPGSV,3,1,12,02,04,037,10,03,12,071,,06,52,170,19,11,14,196,*79
$GPGSV,3,2,12,12,08,298,,13,06,221,18,14,41,104,10,17,61,038,22*71
$GPGSV,3,3,12,19,77,317,12,22,63,083,15,24,37,298,20,30,06,162,*7D
$GLGSV,3,1,10,65,00,008,,72,00,317,,73,50,328,25,74,08,321,08*61
$GLGSV,3,2,10,79,14,134,,80,66,115,26,81,09,033,,82,56,032,20*6B
$GLGSV,3,3,10,83,76,208,,84,11,211,*6A
$GNGLL,4007.29283,N,10458.35418,W,074416.00,A,A*67
$GNRMC,074417.00,A,4007.29272,N,10458.35395,W,1.090,,080924,,,A*7C
$GNVTG,,T,,M,1.090,N,2.019,K,A*3F
$GNGGA,074417.00,4007.29272,N,10458.35395,W,1,05,3.03,1485.0,M,-21.5,M,,*49
$GNGSA,A,3,13,17,19,22,,,,,,,,,4.61,3.03,3.47*13
$GNGSA,A,3,80,,,,,,,,,,,,4.61,3.03,3.47*17
$GPGSV,3,1,12,02,04,037,10,03,12,071,,06,52,170,19,11,14,196,*79
$GPGSV,3,2,12,12,08,298,,13,06,221,18,14,41,104,10,17,61,038,23*70
$GPGSV,3,3,12,19,77,317,12,22,63,083,15,24,37,298,20,30,06,162,*7D
$GLGSV,3,1,10,65,00,008,,72,00,317,,73,50,328,26,74,08,321,09*63
$GLGSV,3,2,10,79,14,134,,80,66,115,27,81,09,033,,82,56,032,20*6A
$GLGSV,3,3,10,83,76,208,,84,11,211,*6A
$GNGLL,4007.29272,N,10458.35395,W,074417.00,A,A*6A
$GNRMC,074418.00,A,4007.29329,N,10458.35375,W,1.130,,080924,,,A*79
$GNVTG,,T,,M,1.130,N,2.093,K,A*36
$GNGGA,074418.00,4007.29329,N,10458.35375,W,1,06,2.65,1485.5,M,-21.5,M,,*40
$GNGSA,A,3,13,14,17,19,22,,,,,,,,4.05,2.65,3.07*11
$GNGSA,A,3,80,,,,,,,,,,,,4.05,2.65,3.07*10
$GPGSV,3,1,12,02,04,037,11,03,12,071,,06,52,170,19,11,14,196,*78
$GPGSV,3,2,12,12,08,298,,13,06,221,18,14,41,104,10,17,61,038,22*71
$GPGSV,3,3,12,19,77,317,12,22,63,083,15,24,37,298,20,30,06,162,*7D
$GLGSV,3,1,10,65,00,008,,72,00,317,,73,50,328,25,74,08,321,08*61
$GLGSV,3,2,10,79,14,134,,80,66,115,26,81,09,033,,82,56,032,20*6B
$GLGSV,3,3,10,83,76,208,,84,11,211,*6A
$GNGLL,4007.29329,N,10458.35375,W,074418.00,A,A*64
$GNRMC,074419.00,A,4007.29462,N,10458.35480,W,0.994,,080924,,,A*7A
$GNVTG,,T,,M,0.994,N,1.840,K,A*34
$GNGGA,074419.00,4007.29462,N,10458.35480,W,1,06,2.65,1486.1,M,-21.5,M,,*43
$GNGSA,A,3,13,14,17,19,22,,,,,,,,4.05,2.65,3.07*11
$GNGSA,A,3,80,,,,,,,,,,,,4.05,2.65,3.07*10
$GPGSV,3,1,12,02,04,037,09,03,12,071,,06,52,170,18,11,14,196,*70
$GPGSV,3,2,12,12,08,298,,13,06,221,18,14,41,104,11,17,61,038,22*70
$GPGSV,3,3,12,19,77,317,13,22,63,083,16,24,37,298,20,30,06,162,*7F
$GLGSV,3,1,10,65,00,008,,72,00,317,,73,50,328,25,74,08,321,08*61
$GLGSV,3,2,10,79,14,134,,80,66,115,27,81,09,033,,82,56,032,19*60
$GLGSV,3,3,10,83,76,208,,84,11,211,*6A
$GNGLL,4007.29462,N,10458.35480,W,074419.00,A,A*60
$GNRMC,074420.00,A,4007.29464,N,10458.35425,W,0.945,,080924,,,A*75
$GNVTG,,T,,M,0.945,N,1.749,K,A*3E
$GNGGA,074420.00,4007.29464,N,10458.35425,W,1,05,3.03,1486.1,M,-21.5,M,,*42
$GNGSA,A,3,13,17,19,22,,,,,,,,,4.61,3.03,3.47*13
$GNGSA,A,3,80,,,,,,,,,,,,4.61,3.03,3.47*17
$GPGSV,3,1,12,02,04,037,08,03,12,071,,06,52,170,18,11,14,196,*71
$GPGSV,3,2,12,12,08,298,,13,06,221,18,14,41,104,09,17,61,038,22*79
$GPGSV,3,3,12,19,77,317,14,22,63,083,16,24,37,298,19,30,06,162,*72
$GLGSV,3,1,10,65,00,008,,72,00,317,,73,50,328,25,74,08,321,08*61
$GLGSV,3,2,10,79,14,134,,80,66,115,27,81,09,033,,82,56,032,19*60
$GLGSV,3,3,10,83,76,208,,84,11,211,*6A
$GNGLL,4007.29464,N,10458.35425,W,074420.00,A,A*63
